[
	{
		"lat": -12.725570678710938,
		"long": -90.16148376464844,
		"name": "Hydra"
	},
	{
		"lat": -12.352035522460938,
		"long": -90.57162475585938,
		"name": "Hydra"
	},
	{
		"lat": -12.392024040222168,
		"long": -90.07257843017578,
		"name": "Hydra"
	},
	{
		"lat": -13.048606872558594,
		"long": -90.29308319091797,
		"name": "Hydra"
	},
	{
		"lat": -20.439905166625977,
		"long": -96.54771423339844,
		"name": "Ancient Fire Elemental"
	},
	{
		"lat": 96.45172119140625,
		"long": -80.48309326171875,
		"name": "Kekeda"
	},
	{
		"lat": 96.45172119140625,
		"long": -80.633056640625,
		"name": "Kekeda"
	},
	{
		"lat": 21.951120376586914,
		"long": -77.33882141113281,
		"name": "Eber"
	},
	{
		"lat": 22.414030075073242,
		"long": -77.70915985107422,
		"name": "Eber"
	},
	{
		"lat": 22.20151138305664,
		"long": -77.79752349853516,
		"name": "Eber"
	},
	{
		"lat": 22.298303604125977,
		"long": -78.54239654541016,
		"name": "Eber"
	},
	{
		"lat": -9.86207103729248,
		"long": -57.03852844238281,
		"name": "Elder Rock Elemental"
	},
	{
		"lat": 28.759876251220703,
		"long": -21.00886344909668,
		"name": "Yeti"
	},
	{
		"lat": -27.289798736572266,
		"long": -23.279111862182617,
		"name": "Drake"
	},
	{
		"lat": -27.689228057861328,
		"long": -23.011077880859375,
		"name": "Drake"
	},
	{
		"lat": -27.972179412841797,
		"long": -23.56159019470215,
		"name": "Drake"
	},
	{
		"lat": -27.675941467285156,
		"long": -23.46275520324707,
		"name": "Drake"
	},
	{
		"lat": -9.205738067626953,
		"long": -5.859750270843506,
		"name": "Buwaya"
	},
	{
		"lat": -20.36327362060547,
		"long": -12.817011833190918,
		"name": "Sentinel"
	},
	{
		"lat": -20.599952697753906,
		"long": -12.817011833190918,
		"name": "Sentinel"
	},
	{
		"lat": -20.599952697753906,
		"long": -12.95599365234375,
		"name": "Sentinel"
	},
	{
		"lat": -20.36327362060547,
		"long": -12.95599365234375,
		"name": "Sentinel"
	},
	{
		"lat": 12.045422554016113,
		"long": 88.00748443603516,
		"name": "Crystal Scoripion "
	}
]